[{"address": "Koningin Astridplein", "bikes": "12", "id": "001", "lat": "51.21782", "lon": "4.42065", "name": "001- Centraal Station - Astrid", "slots": "21", "stationType": "BIKE", "status": "OPN"}, {"address": "Koningin Astridplein", "bikes": "7", "id": "002", "lat": "51.21756", "lon": "4.42073", "name": "002- Centraal Station - Astrid 2", "slots": "27", "stationType": "BIKE", "status": "OPN"}, {"address": "Kievitplein", "bikes": "4", "id": "003", "lat": "51.21309", "lon": "4.42177", "name": "003- Centraal station Kievit 2", "slots": "31", "stationType": "BIKE", "status": "OPN"}, {"address": "De Keyserlei", "bikes": "0", "id": "004", "lat": "51.21736", "lon": "4.42009", "name": "004- De Keyserlei", "slots": "21", "stationType": "BIKE", "status": "OPN"}, {"address": "Lange Kievitstraat", "bikes": "6", "id": "005", "lat": "51.21301", "lon": "4.42173", "name": "005- Centraal Station / Kievit", "slots": "30", "stationType": "BIKE", "status": "OPN"}, {"address": "Mercatorstraat ", "bikes": "10", "id": "006", "lat": "51.21032", "lon": "4.42218", "name": "006- Premetro Plantin", "slots": "13", "stationType": "BIKE", "status": "OPN"}, {"address": "Binnensingel ingang station Berchem", "bikes": "28", "id": "007", "lat": "51.20108", "lon": "4.43395", "name": "007- NMBS Berchem ", "slots": "8", "stationType": "BIKE", "status": "OPN"}, {"address": "Ryckaertplein", "bikes": "23", "id": "008", "lat": "51.20109", "lon": "4.43396", "name": "008- NMBS Berchem 2", "slots": "5", "stationType": "BIKE", "status": "OPN"}, {"address": "Vandenpeereboomstraat - Plantin Moretuslei", "bikes": "3", "id": "009", "lat": "51.20906", "lon": "4.43602", "name": "009- NMBS Oost", "slots": "24", "stationType": "BIKE", "status": "OPN"}, {"address": "Desguinlei - Montignystraat", "bikes": "2", "id": "010", "lat": "51.19847", "lon": "4.39072", "name": "010- NMBS Zuid", "slots": "31", "stationType": "BIKE", "status": "OPN"}, {"address": "Osystraat", "bikes": "3", "id": "011", "lat": "51.22203", "lon": "4.41840", "name": "011- Roosevelt", "slots": "32", "stationType": "BIKE", "status": "OPN"}, {"address": "De Singel/ Brederodestraat", "bikes": "19", "id": "012", "lat": "51.19931", "lon": "4.39014", "name": "012- Brussel", "slots": "17", "stationType": "BIKE", "status": "OPN"}, {"address": "Jan van rijswijcklaan aan bedrijf DE SINGEL", "bikes": "34", "id": "013", "lat": "51.19388", "lon": "4.40225", "name": "013- De Singel", "slots": "1", "stationType": "BIKE", "status": "OPN"}, {"address": "Jan Van Rijswijcklaan", "bikes": "12", "id": "014", "lat": "51.19681", "lon": "4.40569", "name": "014- Markgrave", "slots": "23", "stationType": "BIKE", "status": "OPN"}, {"address": "Beeldhouwersstraat - Admiraal De Boisotstraat", "bikes": "26", "id": "015", "lat": "51.20782", "lon": "4.39439", "name": "015- Schone Kunsten", "slots": "8", "stationType": "BIKE", "status": "OPN"}, {"address": "Karel Rogierstraat ", "bikes": "14", "id": "016", "lat": "51.21016", "lon": "4.39661", "name": "016- Marnixplaats", "slots": "13", "stationType": "BIKE", "status": "OPN"}, {"address": "Groenplaats n\u00b0 7", "bikes": "16", "id": "017", "lat": "51.21888", "lon": "4.40120", "name": "017- Groenplaats", "slots": "2", "stationType": "BIKE", "status": "OPN"}, {"address": "Meir n\u00b0 18", "bikes": "32", "id": "018", "lat": "51.21819", "lon": "4.40617", "name": "018- Meirbrug", "slots": "2", "stationType": "BIKE", "status": "OPN"}, {"address": "Groenkerkhofstraat/Nationalestraat", "bikes": "27", "id": "020", "lat": "51.21880", "lon": "4.40100", "name": "020- Groenplaats 2", "slots": "0", "stationType": "BIKE", "status": "OPN"}, {"address": "Grotesteenweg 150/Driekoningenstraat", "bikes": "9", "id": "021", "lat": "51.19548", "lon": "4.41919", "name": "021- Driekoningen", "slots": "16", "stationType": "BIKE", "status": "OPN"}, {"address": "Statiestraat 162", "bikes": "17", "id": "022", "lat": "51.19992", "lon": "4.43099", "name": "022- Statie", "slots": "15", "stationType": "BIKE", "status": "OPN"}, {"address": "Wapper - Jodenstraat", "bikes": "34", "id": "023", "lat": "51.21708", "lon": "4.40888", "name": "023- Rubenshuis", "slots": "1", "stationType": "BIKE", "status": "OPN"}, {"address": "Anneessensstraat", "bikes": "8", "id": "024", "lat": "51.21796", "lon": "4.41795", "name": "024- Opera", "slots": "21", "stationType": "BIKE", "status": "OPN"}, {"address": "Leysstraat", "bikes": "8", "id": "025", "lat": "51.21819", "lon": "4.41431", "name": "025- Teniersplaats", "slots": "26", "stationType": "BIKE", "status": "OPN"}, {"address": "Meir 84", "bikes": "7", "id": "026", "lat": "51.21823", "lon": "4.41248", "name": "026- Meir-Antoon Van Dijck", "slots": "29", "stationType": "BIKE", "status": "OPN"}, {"address": "Lange Nieuwstraat 101", "bikes": "22", "id": "027", "lat": "51.21950", "lon": "4.41195", "name": "027- Lange Nieuwstraat", "slots": "14", "stationType": "BIKE", "status": "OPN"}, {"address": "Keizerstraat ro n\u00b0 56", "bikes": "20", "id": "028", "lat": "51.22149", "lon": "4.40866", "name": "028- Keizerstraat", "slots": "3", "stationType": "BIKE", "status": "OPN"}, {"address": "Lange Lozanastraat n\u00b0 149", "bikes": "4", "id": "029", "lat": "51.20178", "lon": "4.40606", "name": "029- Lozana", "slots": "11", "stationType": "BIKE", "status": "OPN"}, {"address": "Laar", "bikes": "0", "id": "030", "lat": "51.21634", "lon": "4.43334", "name": "030- Het Laar", "slots": "24", "stationType": "BIKE", "status": "OPN"}, {"address": "Karel Oomsstraat - Binnensingel", "bikes": "9", "id": "031", "lat": "51.19312", "lon": "4.40803", "name": "031- Wezenberg", "slots": "27", "stationType": "BIKE", "status": "OPN"}, {"address": "De Conickplein ro n\u00b0 26", "bikes": "3", "id": "032", "lat": "51.22173", "lon": "4.42071", "name": "032- Permeke", "slots": "24", "stationType": "BIKE", "status": "OPN"}, {"address": "Hessenplein n\u00b0 2", "bikes": "21", "id": "033", "lat": "51.22622", "lon": "4.40965", "name": "033- Hessenhuis", "slots": "0", "stationType": "BIKE", "status": "OPN"}, {"address": "Luikstraat", "bikes": "23", "id": "034", "lat": "51.21078", "lon": "4.38858", "name": "034- M HKA", "slots": "0", "stationType": "BIKE", "status": "OPN"}, {"address": "cockerillkaai", "bikes": "29", "id": "035", "lat": "51.21032", "lon": "4.38770", "name": "035- Cockerillkaai", "slots": "7", "stationType": "BIKE", "status": "OPN"}, {"address": "Schuttershofstraat n\u00b0 2", "bikes": "14", "id": "036", "lat": "51.21639", "lon": "4.40593", "name": "036- Bourla", "slots": "5", "stationType": "BIKE", "status": "OPN"}, {"address": "Tabakvest - Ibis Hotel", "bikes": "8", "id": "037", "lat": "51.21559", "lon": "4.41237", "name": "037- Theater", "slots": "21", "stationType": "BIKE", "status": "OPN"}, {"address": "Pastorijstraat tov huisnr28", "bikes": "9", "id": "038", "lat": "51.22016", "lon": "4.43264", "name": "038- Pastorijstraat", "slots": "12", "stationType": "BIKE", "status": "OPN"}, {"address": "Betogingstraat tov3", "bikes": "2", "id": "039", "lat": "51.21106", "lon": "4.43410", "name": "039- Koxplein", "slots": "34", "stationType": "BIKE", "status": "OPN"}, {"address": "Desguinlei to 246", "bikes": "0", "id": "040", "lat": "51.19676", "lon": "4.39662", "name": "040- Desguinlei", "slots": "36", "stationType": "BIKE", "status": "OPN"}, {"address": "Van Eycklei/Edelinckstraat 24 ", "bikes": "16", "id": "041", "lat": "51.21080", "lon": "4.41161", "name": "041- Van Eyck", "slots": "11", "stationType": "BIKE", "status": "OPN"}, {"address": "Mechelsesteenweg - Ingang Harmoniepark", "bikes": "4", "id": "042", "lat": "51.20228", "lon": "4.41207", "name": "042- Harmonie", "slots": "15", "stationType": "BIKE", "status": "OPN"}, {"address": "Belgi\u00eblei/Gretrystraat", "bikes": "5", "id": "043", "lat": "51.20368", "lon": "4.41528", "name": "043- Gr\u00e9trystraat", "slots": "24", "stationType": "BIKE", "status": "OPN"}, {"address": "Belgi\u00eblei 99", "bikes": "6", "id": "044", "lat": "51.20572", "lon": "4.41819", "name": "044- Belgielei", "slots": "28", "stationType": "BIKE", "status": "OPN"}, {"address": "Oude Leeuwenrui n\u00b0 2", "bikes": "31", "id": "045", "lat": "51.22688", "lon": "4.40550", "name": "045- Falconplein", "slots": "4", "stationType": "BIKE", "status": "OPN"}, {"address": "Grotesteenweg/Boomgaardstraat", "bikes": "21", "id": "046", "lat": "51.19910", "lon": "4.41552", "name": "046- De Merode", "slots": "13", "stationType": "BIKE", "status": "OPN"}, {"address": "Boomgaardstraat/Marialei", "bikes": "9", "id": "047", "lat": "51.20141", "lon": "4.42371", "name": "047- Militair Hospitaal", "slots": "26", "stationType": "BIKE", "status": "OPN"}, {"address": "De Keyserlei", "bikes": "5", "id": "048", "lat": "51.21730", "lon": "4.42015", "name": "048- De Keyserlei 2", "slots": "28", "stationType": "BIKE", "status": "OPN"}, {"address": "Sint-Pietersvliet - Tolhuis", "bikes": "22", "id": "049", "lat": "51.22576", "lon": "4.40092", "name": "049- Tolhuis", "slots": "5", "stationType": "BIKE", "status": "OPN"}, {"address": "Sint-Paulusstraat/ Lange Koepoortstraat", "bikes": "12", "id": "050", "lat": "51.22373", "lon": "4.40302", "name": "050- Klapdorp", "slots": "8", "stationType": "BIKE", "status": "OPN"}, {"address": "Mutsaardplein", "bikes": "18", "id": "051", "lat": "51.22290", "lon": "4.40611", "name": "051- Mutsaardplein", "slots": "17", "stationType": "BIKE", "status": "OPN"}, {"address": "Entrepotkaai", "bikes": "26", "id": "052", "lat": "51.22802", "lon": "4.41169", "name": "052- Waaslandtunnel", "slots": "9", "stationType": "BIKE", "status": "OPN"}, {"address": "Paardenmarkt - Kleine Kauwenberg", "bikes": "21", "id": "053", "lat": "51.22501", "lon": "4.41223", "name": "053- Paardenmarkt", "slots": "0", "stationType": "BIKE", "status": "OPN"}, {"address": "Pieter Van Hobokenstraat n\u00b0 19", "bikes": "20", "id": "054", "lat": "51.22186", "lon": "4.41299", "name": "054- Ossenmarkt", "slots": "0", "stationType": "BIKE", "status": "OPN"}, {"address": "Vredestraat/Zonnebloemstraat", "bikes": "3", "id": "055", "lat": "51.19698", "lon": "4.42823", "name": "055- Zonnebloemstraat", "slots": "29", "stationType": "BIKE", "status": "OPN"}, {"address": "Minderbroederrui n\u00b0 46", "bikes": "20", "id": "056", "lat": "51.22219", "lon": "4.40459", "name": "056- Minderbroedersrui", "slots": "9", "stationType": "BIKE", "status": "OPN"}, {"address": "Wolstraat - Korte Koepoortstraat 2", "bikes": "15", "id": "057", "lat": "51.22154", "lon": "4.40267", "name": "057- Wolstraat", "slots": "2", "stationType": "BIKE", "status": "OPN"}, {"address": "Jordaenskaai ro Saucierstraat", "bikes": "17", "id": "058", "lat": "51.22439", "lon": "4.39910", "name": "058- Noorderterras", "slots": "12", "stationType": "BIKE", "status": "OPN"}, {"address": "Ernest Van Dijckkaai ro n\u00b0 13 - Zuiderterras", "bikes": "28", "id": "059", "lat": "51.22110", "lon": "4.39680", "name": "059- Het Steen", "slots": "7", "stationType": "BIKE", "status": "OPN"}, {"address": "Wisselstraat 9", "bikes": "21", "id": "060", "lat": "51.22166", "lon": "4.40056", "name": "060- Grote Markt", "slots": "15", "stationType": "BIKE", "status": "OPN"}, {"address": "Statiestraat - Victor Jacobslei", "bikes": "1", "id": "061", "lat": "51.19781", "lon": "4.42541", "name": "061- Victor Jacobslei", "slots": "32", "stationType": "BIKE", "status": "OPN"}, {"address": "Damplein/Lange lobroekstraat ro n\u00b0 222", "bikes": "2", "id": "062", "lat": "51.23183", "lon": "4.42698", "name": "062- Station Dam", "slots": "19", "stationType": "BIKE", "status": "OPN"}, {"address": "Lange Lobroekstraat tov huisnr 93", "bikes": "21", "id": "063", "lat": "51.23001", "lon": "4.43157", "name": "063- Slachthuis", "slots": "14", "stationType": "BIKE", "status": "OPN"}, {"address": "Plantinkaai ro Jansvliet (Zuiderterras)", "bikes": "28", "id": "064", "lat": "51.21907", "lon": "4.39495", "name": "064- Zuiderterras", "slots": "8", "stationType": "BIKE", "status": "OPN"}, {"address": "Drukkerijstraat n\u00b0 26", "bikes": "10", "id": "066", "lat": "51.21709", "lon": "4.39925", "name": "066- Modemuseum", "slots": "13", "stationType": "BIKE", "status": "OPN"}, {"address": "Oudaan n\u00b0 14", "bikes": "33", "id": "067", "lat": "51.21578", "lon": "4.40314", "name": "067- Oudaan", "slots": "3", "stationType": "BIKE", "status": "OPN"}, {"address": "Turnhoutsebaan/Stenenbrug ", "bikes": "0", "id": "068", "lat": "51.21457", "lon": "4.44368", "name": "068-  Turnhoutsepoort", "slots": "29", "stationType": "BIKE", "status": "OPN"}, {"address": "Fonteinstraat tov 72", "bikes": "0", "id": "069", "lat": "51.21116", "lon": "4.44196", "name": "069- Fonteinstraat", "slots": "36", "stationType": "BIKE", "status": "OPN"}, {"address": "Sint Andriesplaats n\u00b0 24", "bikes": "16", "id": "070", "lat": "51.21485", "lon": "4.39634", "name": "070- Sint Andries", "slots": "14", "stationType": "BIKE", "status": "OPN"}, {"address": "Kronenburgstraat ro n\u00b0 82", "bikes": "22", "id": "072", "lat": "51.21189", "lon": "4.39894", "name": "072- Tropisch Instituut", "slots": "13", "stationType": "BIKE", "status": "OPN"}, {"address": "Maarschalk Gerardstraat/schermersstraat", "bikes": "35", "id": "073", "lat": "51.21231", "lon": "4.40372", "name": "073- Maarschalk G\u00e9rard", "slots": "1", "stationType": "BIKE", "status": "OPN"}, {"address": "Scheldestraat - Kronenburgstraat", "bikes": "15", "id": "074", "lat": "51.21233", "lon": "4.39402", "name": "074- Vismijn", "slots": "14", "stationType": "BIKE", "status": "OPN"}, {"address": "Museumstraat", "bikes": "19", "id": "075", "lat": "51.21000", "lon": "4.39162", "name": "075- Vlaamsekaai", "slots": "1", "stationType": "BIKE", "status": "OPN"}, {"address": "Nationalestraat/Lange Vlierstraat", "bikes": "3", "id": "076", "lat": "51.21404", "lon": "4.39809", "name": "076- Prekersplein", "slots": "17", "stationType": "BIKE", "status": "OPN"}, {"address": "Frankrijklei - Blauwtorenplein", "bikes": "34", "id": "077", "lat": "51.21275", "lon": "4.40947", "name": "077- Blauwtorenplein", "slots": "1", "stationType": "BIKE", "status": "OPN"}, {"address": "Britselei n\u00b0 82", "bikes": "13", "id": "078", "lat": "51.20920", "lon": "4.40301", "name": "078- Oud Gerechtshof", "slots": "13", "stationType": "BIKE", "status": "OPN"}, {"address": "Britselei - Mechelsesteenweg", "bikes": "11", "id": "079", "lat": "51.21103", "lon": "4.40726", "name": "079- Nationale Bank", "slots": "22", "stationType": "BIKE", "status": "OPN"}, {"address": "Amerikalei/Graaf Van Hoornestraat", "bikes": "0", "id": "080", "lat": "51.20607", "lon": "4.39339", "name": "080- Montigny", "slots": "35", "stationType": "BIKE", "status": "OPN"}, {"address": "Bolivarplaats rechts van het gerechtsgebouw", "bikes": "5", "id": "081", "lat": "51.20468", "lon": "4.38767", "name": "081- Justitiepaleis", "slots": "21", "stationType": "BIKE", "status": "OPN"}, {"address": "Verviersstraat - Waalsekaai", "bikes": "15", "id": "082", "lat": "51.20862", "lon": "4.38747", "name": "082- Fotografiemuseum", "slots": "21", "stationType": "BIKE", "status": "OPN"}, {"address": "Amerikalei n\u00b0 82", "bikes": "20", "id": "083", "lat": "51.20775", "lon": "4.39851", "name": "083- Brederode", "slots": "7", "stationType": "BIKE", "status": "OPN"}, {"address": "Lange Gasthuisstraat ro n\u00b0 3", "bikes": "32", "id": "084", "lat": "51.21344", "lon": "4.40497", "name": "084- Elzenveld", "slots": "1", "stationType": "BIKE", "status": "OPN"}, {"address": "Boudewijnsstraat tegenover n\u00b0 19-21", "bikes": "31", "id": "085", "lat": "51.20585", "lon": "4.39866", "name": "085- Den Bell", "slots": "4", "stationType": "BIKE", "status": "OPN"}, {"address": "Broederminstraat 59", "bikes": "26", "id": "086", "lat": "51.20335", "lon": "4.39235", "name": "086- Troonplaats", "slots": "0", "stationType": "BIKE", "status": "OPN"}, {"address": "Lange Elzenstraat n\u00b0 56", "bikes": "6", "id": "087", "lat": "51.20066", "lon": "4.39424", "name": "087- Lange Elzen", "slots": "15", "stationType": "BIKE", "status": "OPN"}, {"address": "Van Trierstraat - Haantjeslei", "bikes": "11", "id": "088", "lat": "51.20114", "lon": "4.40221", "name": "088- Haantjeslei", "slots": "9", "stationType": "BIKE", "status": "OPN"}, {"address": "Van Schoonbekestraat - Markgravelei", "bikes": "4", "id": "089", "lat": "51.19843", "lon": "4.40223", "name": "089- Hof van Leysen", "slots": "32", "stationType": "BIKE", "status": "OPN"}, {"address": "Vinkenstraat ro n\u00b0 7", "bikes": "3", "id": "090", "lat": "51.20455", "lon": "4.40477", "name": "090- Ballaarstraat", "slots": "14", "stationType": "BIKE", "status": "OPN"}, {"address": "Mechelsesteenweg n\u00b0 66", "bikes": "9", "id": "091", "lat": "51.20882", "lon": "4.40830", "name": "091- Hemelstraat", "slots": "9", "stationType": "BIKE", "status": "OPN"}, {"address": "Mechelsesteenweg n\u00b0 180", "bikes": "5", "id": "092", "lat": "51.20451", "lon": "4.41063", "name": "092- Sint-Thomas", "slots": "16", "stationType": "BIKE", "status": "OPN"}, {"address": "sint vincentius", "bikes": "20", "id": "093", "lat": "51.20541", "lon": "4.41356", "name": "093- Sint Vincentius", "slots": "9", "stationType": "BIKE", "status": "OPN"}, {"address": "Paleisstraat ", "bikes": "4", "id": "094", "lat": "51.20480", "lon": "4.39610", "name": "094- Paleisstraat", "slots": "29", "stationType": "BIKE", "status": "OPN"}, {"address": "Quinten Mathijslei n\u00b0 12", "bikes": "14", "id": "095", "lat": "51.21415", "lon": "4.41632", "name": "095- Quinten Matsijslei", "slots": "15", "stationType": "BIKE", "status": "OPN"}, {"address": "Rubenslei \u2013 Louiza \u2013 Marialei ", "bikes": "19", "id": "096", "lat": "51.21328", "lon": "4.41311", "name": "096- Stadspark", "slots": "4", "stationType": "BIKE", "status": "OPN"}, {"address": "Cuperusstraat ro Lange Leemstraat", "bikes": "5", "id": "097", "lat": "51.20278", "lon": "4.42883", "name": "097- Cuperus", "slots": "14", "stationType": "BIKE", "status": "OPN"}, {"address": "Generaal Lemanstraat - Karel Oomsstraat", "bikes": "17", "id": "099", "lat": "51.19730", "lon": "4.41048", "name": "099- Generaal Leman", "slots": "6", "stationType": "BIKE", "status": "OPN"}, {"address": "Frans Van Hombeeckplein 25", "bikes": "16", "id": "100", "lat": "51.19485", "lon": "4.41660", "name": "100- Van Hombeeckplein", "slots": "16", "stationType": "BIKE", "status": "OPN"}, {"address": "Lange Stuivenbergstraat ", "bikes": "22", "id": "101", "lat": "51.22410", "lon": "4.43200", "name": "101- Premetro Handel", "slots": "14", "stationType": "BIKE", "status": "OPN"}, {"address": "Duinstraat", "bikes": "9", "id": "102", "lat": "51.22246", "lon": "4.43026", "name": "102- Duinstraat", "slots": "27", "stationType": "BIKE", "status": "OPN"}, {"address": "Uitbreidingsstraat 184", "bikes": "19", "id": "103", "lat": "51.19256", "lon": "4.42146", "name": "103- Oude Kerk Berchem", "slots": "16", "stationType": "BIKE", "status": "OPN"}, {"address": "Provinciestraat - Mercatorstraat", "bikes": "0", "id": "104", "lat": "51.20821", "lon": "4.42429", "name": "104- Mercator", "slots": "17", "stationType": "BIKE", "status": "OPN"}, {"address": "Lange van Ruusbroekstraat", "bikes": "9", "id": "105", "lat": "51.20902", "lon": "4.43157", "name": "105- Plantin en Moretus", "slots": "23", "stationType": "BIKE", "status": "OPN"}, {"address": "Draakplaats", "bikes": "0", "id": "106", "lat": "51.20561", "lon": "4.43221", "name": "106- Draakplaats", "slots": "33", "stationType": "BIKE", "status": "OPN"}, {"address": "Moorkensplein ro n\u00b0 33A", "bikes": "0", "id": "107", "lat": "51.21338", "lon": "4.43381", "name": "107- Moorkensplein", "slots": "35", "stationType": "BIKE", "status": "OPN"}, {"address": "Delaraystraat ro n\u00b0 13", "bikes": "7", "id": "108", "lat": "51.21602", "lon": "4.43997", "name": "108- Krugerpark", "slots": "17", "stationType": "BIKE", "status": "OPN"}, {"address": "Kerkstraat n\u00b0 58", "bikes": "8", "id": "109", "lat": "51.21858", "lon": "4.43051", "name": "109- Kerkstraat", "slots": "13", "stationType": "BIKE", "status": "OPN"}, {"address": "Dageraadplaats", "bikes": "0", "id": "110", "lat": "51.20694", "lon": "4.43010", "name": "110- Dageraadplaats", "slots": "36", "stationType": "BIKE", "status": "OPN"}, {"address": "Plantin en Moretuslei", "bikes": "2", "id": "111", "lat": "51.21018", "lon": "4.42776", "name": "111- Van Der Meyden", "slots": "28", "stationType": "BIKE", "status": "OPN"}, {"address": "Uitbreidingstraat", "bikes": "0", "id": "112", "lat": "51.20345", "lon": "4.43684", "name": "112- Pretoriastraat", "slots": "36", "stationType": "BIKE", "status": "CLS"}, {"address": "Vercammenstraat - Helmstraat", "bikes": "3", "id": "113", "lat": "51.21861", "lon": "4.43862", "name": "113- Helmstraat", "slots": "24", "stationType": "BIKE", "status": "OPN"}, {"address": "Pesthofstraat ro n\u00b0 5", "bikes": "11", "id": "114", "lat": "51.22199", "lon": "4.43384", "name": "114- ZNA Stuivenberg", "slots": "10", "stationType": "BIKE", "status": "OPN"}, {"address": "Sint Elisabethstraat - Greinstraat", "bikes": "20", "id": "115", "lat": "51.22275", "lon": "4.42418", "name": "115- Metro Elisabeth", "slots": "1", "stationType": "BIKE", "status": "OPN"}, {"address": "Van Eycklei ro n\u00b0 48", "bikes": "7", "id": "116", "lat": "51.21010", "lon": "4.41722", "name": "116- Loosplaats", "slots": "11", "stationType": "BIKE", "status": "OPN"}, {"address": "Sint Jansplein ro n\u00b0 17", "bikes": "11", "id": "117", "lat": "51.22542", "lon": "4.41840", "name": "117- Sint Jansplein", "slots": "18", "stationType": "BIKE", "status": "OPN"}, {"address": "Trapstraat n\u00b0 10", "bikes": "0", "id": "118", "lat": "51.22714", "lon": "4.42225", "name": "118- Dambrugge", "slots": "19", "stationType": "BIKE", "status": "OPN"}, {"address": "Provinciestraat (plein)", "bikes": "0", "id": "119", "lat": "51.21537", "lon": "4.42537", "name": "119- Ploeg", "slots": "23", "stationType": "BIKE", "status": "CLS"}, {"address": "Schijnpoortweg ", "bikes": "6", "id": "120", "lat": "51.22753", "lon": "4.43904", "name": "120- Eendracht", "slots": "18", "stationType": "BIKE", "status": "OPN"}, {"address": "Stuivenbergplein ro n\u00b0 36-1", "bikes": "0", "id": "121", "lat": "51.22746", "lon": "4.43053", "name": "121- Stuivenbergplein", "slots": "30", "stationType": "BIKE", "status": "OPN"}, {"address": "Pothoekstraat ro n\u00b0 124", "bikes": "8", "id": "122", "lat": "51.22462", "lon": "4.43660", "name": "122- Schijnpoort", "slots": "12", "stationType": "BIKE", "status": "OPN"}, {"address": "Vis\u00e9straat 16", "bikes": "4", "id": "123", "lat": "51.22904", "lon": "4.42494", "name": "123- Park Spoor Noord 2", "slots": "13", "stationType": "BIKE", "status": "OPN"}, {"address": "Ellermansstraat \u2013 Fuggerstraat", "bikes": "24", "id": "124", "lat": "51.22996", "lon": "4.41961", "name": "124- Park Spoor Noord 1", "slots": "6", "stationType": "BIKE", "status": "OPN"}, {"address": "Sint-Norbertusstraat/Van Kerckhovenstraat", "bikes": "9", "id": "125", "lat": "51.22596", "lon": "4.42347", "name": "125- Sint-Norbertus", "slots": "27", "stationType": "BIKE", "status": "OPN"}, {"address": "Lange Dijkstraat 46/ Van Aerdtstraat", "bikes": "11", "id": "126", "lat": "51.22805", "lon": "4.41902", "name": "126- Lange Dijk", "slots": "21", "stationType": "BIKE", "status": "OPN"}, {"address": "Itali\u00eblei n\u00b0 4", "bikes": "25", "id": "127", "lat": "51.22827", "lon": "4.41352", "name": "127- FOD Financi\u00ebn", "slots": "4", "stationType": "BIKE", "status": "OPN"}, {"address": "Kempenstraat", "bikes": "8", "id": "128", "lat": "51.23177", "lon": "4.41729", "name": "128- ZNA Cadix", "slots": "26", "stationType": "BIKE", "status": "OPN"}, {"address": "Godefriduskaai Qpark", "bikes": "35", "id": "129", "lat": "51.22808", "lon": "4.40888", "name": "129- Godefriduskaai", "slots": "1", "stationType": "BIKE", "status": "OPN"}, {"address": "Lamorini\u00e8restraat", "bikes": "9", "id": "130", "lat": "51.20380", "lon": "4.42080", "name": "130- Lamoriniere", "slots": "9", "stationType": "BIKE", "status": "OPN"}, {"address": "De wittestraat - Generaal Lemanstraat", "bikes": "11", "id": "131", "lat": "51.19376", "lon": "4.41215", "name": "131- De Wittestraat", "slots": "10", "stationType": "BIKE", "status": "OPN"}, {"address": "Maarschalk Montgomeryplein ro n\u00b0 4", "bikes": "4", "id": "132", "lat": "51.21177", "lon": "4.43779", "name": "132- Montgomery", "slots": "14", "stationType": "BIKE", "status": "OPN"}, {"address": "Entrepotkaai n\u00b0 1", "bikes": "21", "id": "133", "lat": "51.22958", "lon": "4.41135", "name": "133- Willemdok", "slots": "3", "stationType": "BIKE", "status": "OPN"}, {"address": "Godefriduskaai - Oostendekaai", "bikes": "23", "id": "134", "lat": "51.22827", "lon": "4.40557", "name": "134- MAS", "slots": "13", "stationType": "BIKE", "status": "OPN"}, {"address": "Sint-Aldegondiskaai", "bikes": "31", "id": "135", "lat": "51.22797", "lon": "4.40203", "name": "135- Loodswezen", "slots": "5", "stationType": "BIKE", "status": "OPN"}, {"address": "Hardenvoort", "bikes": "7", "id": "136", "lat": "51.23135", "lon": "4.42100", "name": "136- Spoor Noord Skatebowl", "slots": "28", "stationType": "BIKE", "status": "OPN"}, {"address": "napeleonkaai/Nassaustraat ", "bikes": "19", "id": "137", "lat": "51.22978", "lon": "4.40575", "name": "137- Sint-Laureiskaai", "slots": "17", "stationType": "BIKE", "status": "OPN"}, {"address": "Amsterdamstraat", "bikes": "11", "id": "138", "lat": "51.23120", "lon": "4.40355", "name": "138- Amsterdamstraat", "slots": "13", "stationType": "BIKE", "status": "OPN"}, {"address": "Londenstraat", "bikes": "16", "id": "139", "lat": "51.23105", "lon": "4.41267", "name": "139- Londenstraat", "slots": "5", "stationType": "BIKE", "status": "OPN"}, {"address": "Goethestraat/Thoneth", "bikes": "3", "id": "140", "lat": "51.23142", "lon": "4.39163", "name": "140- Jachthaven LO", "slots": "33", "stationType": "BIKE", "status": "OPN"}, {"address": "Gloriantlaan/Kastanjedreef", "bikes": "9", "id": "141", "lat": "51.23525", "lon": "4.38688", "name": "141- Sint-Anna", "slots": "26", "stationType": "BIKE", "status": "OPN"}, {"address": "Esmoreitlaan", "bikes": "6", "id": "142", "lat": "51.23344", "lon": "4.38254", "name": "142- Esmoreitlaan", "slots": "30", "stationType": "BIKE", "status": "OPN"}, {"address": "Gloriantlaan/Melis Stokelaan 24  ", "bikes": "4", "id": "143", "lat": "51.23115", "lon": "4.38618", "name": "143- Melis Stokelaan", "slots": "20", "stationType": "BIKE", "status": "OPN"}, {"address": "August Vermeylenlaan", "bikes": "10", "id": "144", "lat": "51.23127", "lon": "4.37867", "name": "144- August Vermeylenlaan", "slots": "26", "stationType": "BIKE", "status": "OPN"}, {"address": "August Vermeylenlaan/ Charles de Costerlaan", "bikes": "1", "id": "145", "lat": "51.22784", "lon": "4.37855", "name": "145- De Coster", "slots": "23", "stationType": "BIKE", "status": "OPN"}, {"address": "Gloriantlaan/Reinaartlaan", "bikes": "8", "id": "146", "lat": "51.22778", "lon": "4.38589", "name": "146- Reinaartlaan", "slots": "25", "stationType": "BIKE", "status": "OPN"}, {"address": "Halewijnlaan", "bikes": "13", "id": "147", "lat": "51.22392", "lon": "4.37788", "name": "147- Halewijnlaan", "slots": "11", "stationType": "BIKE", "status": "OPN"}, {"address": "Frederik Van Eedenstraa", "bikes": "18", "id": "148", "lat": "51.22320", "lon": "4.38622", "name": "148- Verhaerenlaan", "slots": "18", "stationType": "BIKE", "status": "OPN"}, {"address": "Blancefloerlaan tov Frederik van Eedenplein", "bikes": "25", "id": "149", "lat": "51.22061", "lon": "4.38633", "name": "149- Van Eedenplein", "slots": "10", "stationType": "BIKE", "status": "OPN"}, {"address": "Waterhoenlaan", "bikes": "13", "id": "150", "lat": "51.22007", "lon": "4.38172", "name": "150- Waterhoenlaan", "slots": "11", "stationType": "BIKE", "status": "OPN"}, {"address": "Blancefloerlaan/Halewijnlaan", "bikes": "11", "id": "151", "lat": "51.22031", "lon": "4.37841", "name": "151- Van Cauwelaert", "slots": "21", "stationType": "BIKE", "status": "OPN"}, {"address": "Blancefloerlaan", "bikes": "10", "id": "152", "lat": "51.22007", "lon": "4.37559", "name": "152- Blancefloerlaan", "slots": "26", "stationType": "BIKE", "status": "OPN"}, {"address": "Beatrijslaan", "bikes": "10", "id": "153", "lat": "51.21853", "lon": "4.38571", "name": "153- Beatrijslaan", "slots": "25", "stationType": "BIKE", "status": "OPN"}, {"address": "Terloplein", "bikes": "1", "id": "154", "lat": "51.21907", "lon": "4.44436", "name": "154- Terloplein", "slots": "31", "stationType": "BIKE", "status": "OPN"}, {"address": "Statielei", "bikes": "1", "id": "155", "lat": "51.21620", "lon": "4.44564", "name": "155- Statielei", "slots": "35", "stationType": "BIKE", "status": "OPN"}, {"address": "Van Kerckhovenstraat 74-76", "bikes": "1", "id": "156", "lat": "51.22603", "lon": "4.42551", "name": "156- Gasstraat", "slots": "29", "stationType": "BIKE", "status": "OPN"}, {"address": "Binnensingel ", "bikes": "21", "id": "157", "lat": "51.19250", "lon": "4.42158", "name": "157- Berchem Kerk", "slots": "15", "stationType": "BIKE", "status": "OPN"}, {"address": "Zuidervelodroom", "bikes": "2", "id": "158", "lat": "51.20193", "lon": "4.39839", "name": "158- Zuidervelodroom", "slots": "34", "stationType": "BIKE", "status": "OPN"}, {"address": "Boudewijnsstraat", "bikes": "21", "id": "159", "lat": "51.20560", "lon": "4.39928", "name": "159- Den Bell 2", "slots": "8", "stationType": "BIKE", "status": "OPN"}, {"address": "Brusselstraat", "bikes": "23", "id": "160", "lat": "51.20338", "lon": "4.38880", "name": "160- Vlinderpaleis", "slots": "12", "stationType": "BIKE", "status": "OPN"}, {"address": "Henri La Fontainestraat", "bikes": "6", "id": "161", "lat": "51.20356", "lon": "4.42566", "name": "161 - Hospitaalplein", "slots": "26", "stationType": "BIKE", "status": "OPN"}, {"address": "Blancefloerlaan", "bikes": "3", "id": "162", "lat": "51.21993", "lon": "4.36874", "name": "162 - Regatta", "slots": "33", "stationType": "BIKE", "status": "OPN"}, {"address": "Galgenweellaan", "bikes": "11", "id": "163", "lat": "51.21748", "lon": "4.37798", "name": "163 - Pluvier", "slots": "25", "stationType": "BIKE", "status": "OPN"}, {"address": "Ellermanstraat", "bikes": "14", "id": "164", "lat": "51.22993", "lon": "4.41499", "name": "164 - AP Ellermanstraat", "slots": "21", "stationType": "BIKE", "status": "OPN"}, {"address": "Paardenmarkt", "bikes": "21", "id": "165", "lat": "51.22516", "lon": "4.40899", "name": "165- Den Roscam", "slots": "15", "stationType": "BIKE", "status": "OPN"}, {"address": "Schoenmarkt", "bikes": "28", "id": "166", "lat": "51.21831", "lon": "4.40331", "name": "166 - Schoenmarkt", "slots": "5", "stationType": "BIKE", "status": "OPN"}, {"address": "Italielei", "bikes": "22", "id": "167", "lat": "51.22845", "lon": "4.41339", "name": "167 - Fod Financi\u00ebn 2 ", "slots": "8", "stationType": "BIKE", "status": "OPN"}, {"address": "Quellinstraat 6-8", "bikes": "12", "id": "170", "lat": "51.21736", "lon": "4.41654", "name": "170-Quellin", "slots": "9", "stationType": "BIKE", "status": "OPN"}, {"address": "Koningin Astridplein", "bikes": "8", "id": "171", "lat": "51.21788", "lon": "4.42061", "name": "171 - Centraal Station 3 ", "slots": "2", "stationType": "BIKE", "status": "OPN"}, {"address": "Koningin Astridplein", "bikes": "2", "id": "172", "lat": "51.21790", "lon": "4.42066", "name": "172 - Centraal Station 4", "slots": "10", "stationType": "BIKE", "status": "OPN"}, {"address": "Operaplein", "bikes": "18", "id": "173", "lat": "51.22020", "lon": "4.41706", "name": "173 - Franklin Roosevelt", "slots": "16", "stationType": "BIKE", "status": "OPN"}, {"address": "Asiadok-oostkaai / Noorderlaan", "bikes": "13", "id": "175", "lat": "51.23518", "lon": "4.42020", "name": "175 - Asiadok", "slots": "22", "stationType": "BIKE", "status": "OPN"}, {"address": "Ekersesteenweg", "bikes": "16", "id": "201", "lat": "51.26263", "lon": "4.41869", "name": "201- P&R Luchtbal", "slots": "17", "stationType": "BIKE", "status": "OPN"}, {"address": "Dublinstraat", "bikes": "14", "id": "202", "lat": "51.25727", "lon": "4.42164", "name": "202- Squarepark", "slots": "10", "stationType": "BIKE", "status": "OPN"}, {"address": "Venezuelastraat", "bikes": "13", "id": "203", "lat": "51.25361", "lon": "4.42317", "name": "203- Venezuelastraat", "slots": "23", "stationType": "BIKE", "status": "OPN"}, {"address": "Noorderlaan", "bikes": "6", "id": "204", "lat": "51.24996", "lon": "4.42090", "name": "204- Luchtbal winkelcentrum", "slots": "30", "stationType": "BIKE", "status": "OPN"}, {"address": "Groenendaallaan", "bikes": "11", "id": "205", "lat": "51.24478", "lon": "4.41434", "name": "205- Kinepolis", "slots": "25", "stationType": "BIKE", "status": "OPN"}, {"address": "Bermstraat", "bikes": "17", "id": "206", "lat": "51.24450", "lon": "4.42309", "name": "206- Station Luchtbal", "slots": "16", "stationType": "BIKE", "status": "OPN"}, {"address": "Bredabaan", "bikes": "9", "id": "207", "lat": "51.25812", "lon": "4.46196", "name": "207- P&R Merksem", "slots": "27", "stationType": "BIKE", "status": "OPN"}, {"address": "Ringlaan", "bikes": "13", "id": "208", "lat": "51.25451", "lon": "4.45469", "name": "208- Ringlaan Atheneum", "slots": "23", "stationType": "BIKE", "status": "OPN"}, {"address": "Korte Bremstraat", "bikes": "18", "id": "209", "lat": "51.25644", "lon": "4.44715", "name": "209- Melgeshof", "slots": "18", "stationType": "BIKE", "status": "OPN"}, {"address": "Maantjessteenweg", "bikes": "8", "id": "210", "lat": "51.25523", "lon": "4.43576", "name": "210- Maantjessteenweg", "slots": "28", "stationType": "BIKE", "status": "OPN"}, {"address": "Rodeloopstraat", "bikes": "6", "id": "211", "lat": "51.25131", "lon": "4.43732", "name": "211- Cultuurcentrum", "slots": "30", "stationType": "BIKE", "status": "OPN"}, {"address": "Rodeloopstraat", "bikes": "2", "id": "212", "lat": "51.25091", "lon": "4.44231", "name": "212- Rode Loop", "slots": "34", "stationType": "BIKE", "status": "OPN"}, {"address": "Kroonplein", "bikes": "21", "id": "213", "lat": "51.25148", "lon": "4.44805", "name": "213- Kroonplein", "slots": "9", "stationType": "BIKE", "status": "OPN"}, {"address": "Kerkhofblommenstraat", "bikes": "14", "id": "214", "lat": "51.24810", "lon": "4.43234", "name": "214- Kerkhofblommen", "slots": "22", "stationType": "BIKE", "status": "OPN"}, {"address": "Nieuwdreef", "bikes": "0", "id": "215", "lat": "51.24671", "lon": "4.44015", "name": "215- Nieuwdreef", "slots": "36", "stationType": "BIKE", "status": "OPN"}, {"address": "Van Heybeeckstraat", "bikes": "12", "id": "216", "lat": "51.24727", "lon": "4.44902", "name": "216- Zwembad Merksem", "slots": "18", "stationType": "BIKE", "status": "OPN"}, {"address": "Bredabaan", "bikes": "9", "id": "217", "lat": "51.24917", "lon": "4.45468", "name": "217- Joske Vermeulen", "slots": "21", "stationType": "BIKE", "status": "OPN"}, {"address": "Gagelveldenstraat", "bikes": "14", "id": "218", "lat": "51.24302", "lon": "4.43569", "name": "218- Groenendaalcollege", "slots": "22", "stationType": "BIKE", "status": "OPN"}, {"address": "Borrewaterstraat", "bikes": "15", "id": "219", "lat": "51.24216", "lon": "4.44252", "name": "219- Districtshuis Merksem", "slots": "18", "stationType": "BIKE", "status": "OPN"}, {"address": "Sint-Bartholomeusstraat", "bikes": "10", "id": "220", "lat": "51.24315", "lon": "4.44740", "name": "220- 't Dokske", "slots": "20", "stationType": "BIKE", "status": "OPN"}, {"address": "Mexicostraat", "bikes": "25", "id": "221", "lat": "51.24048", "lon": "4.40799", "name": "221-Havenhuis", "slots": "10", "stationType": "BIKE", "status": "OPN"}, {"address": "Binnenvaartstraat", "bikes": "19", "id": "222", "lat": "51.23334", "lon": "4.41391", "name": "222- Cadix Oost", "slots": "15", "stationType": "BIKE", "status": "OPN"}, {"address": "Montevideostraat", "bikes": "33", "id": "223", "lat": "51.23335", "lon": "4.40311", "name": "223- Red Star Line", "slots": "2", "stationType": "BIKE", "status": "OPN"}, {"address": "Indiestraat", "bikes": "27", "id": "224", "lat": "51.23439", "lon": "4.40958", "name": "224- Indiestraat", "slots": "9", "stationType": "BIKE", "status": "OPN"}, {"address": "Verbindingsdok/Oostkaai", "bikes": "22", "id": "225", "lat": "51.23048", "lon": "4.40769", "name": "225- Verbindingsdok Eilandje", "slots": "14", "stationType": "BIKE", "status": "OPN"}, {"address": "Noordschippersdok 41", "bikes": "14", "id": "226", "lat": "51.23390", "lon": "4.42974", "name": "226- Noordschippersdok", "slots": "22", "stationType": "BIKE", "status": "OPN"}, {"address": "Van Amstelstraat", "bikes": "1", "id": "227", "lat": "51.23276", "lon": "4.44433", "name": "227- Amstel", "slots": "23", "stationType": "BIKE", "status": "OPN"}, {"address": "Van Heetveldelei", "bikes": "18", "id": "228", "lat": "51.22984", "lon": "4.45141", "name": "228- Van Heetvelde", "slots": "6", "stationType": "BIKE", "status": "OPN"}, {"address": "Jozef Nellenslei", "bikes": "0", "id": "229", "lat": "51.22616", "lon": "4.45199", "name": "229- Jozef Nellens", "slots": "36", "stationType": "BIKE", "status": "OPN"}, {"address": "Bosuil", "bikes": "7", "id": "230", "lat": "51.22909", "lon": "4.46191", "name": "230- Bosuil", "slots": "29", "stationType": "BIKE", "status": "OPN"}, {"address": "Ter Heydenlaan", "bikes": "12", "id": "231", "lat": "51.22922", "lon": "4.46783", "name": "231- den Antwerp", "slots": "24", "stationType": "BIKE", "status": "OPN"}, {"address": "Wim Saerensplein", "bikes": "15", "id": "232", "lat": "51.22849", "lon": "4.47867", "name": "232- Wim Saerens", "slots": "20", "stationType": "BIKE", "status": "OPN"}, {"address": "Gallifortlei", "bikes": "8", "id": "233", "lat": "51.22510", "lon": "4.46617", "name": "233- Gallifort", "slots": "28", "stationType": "BIKE", "status": "OPN"}, {"address": "Jan Brochovenstraat", "bikes": "4", "id": "234", "lat": "51.22220", "lon": "4.46118", "name": "234- Deurne Atheneum", "slots": "31", "stationType": "BIKE", "status": "OPN"}, {"address": "Cogelsplein", "bikes": "10", "id": "235", "lat": "51.21994", "lon": "4.45501", "name": "235- Cogelsplein", "slots": "25", "stationType": "BIKE", "status": "OPN"}, {"address": "Maurice Dequeeckerplein", "bikes": "11", "id": "236", "lat": "51.21916", "lon": "4.46007", "name": "236- Districtshuis Deurne", "slots": "25", "stationType": "BIKE", "status": "OPN"}, {"address": "Ter Rivierenlaan", "bikes": "3", "id": "237", "lat": "51.22033", "lon": "4.46925", "name": "237- Ter Rivieren", "slots": "33", "stationType": "BIKE", "status": "OPN"}, {"address": "Ertbruggelaan", "bikes": "11", "id": "238", "lat": "51.22373", "lon": "4.47563", "name": "238- Ertbrugge", "slots": "13", "stationType": "BIKE", "status": "OPN"}, {"address": "Alfons schneiderlaan", "bikes": "4", "id": "239", "lat": "51.22126", "lon": "4.47948", "name": "239- Zwarte Arend", "slots": "25", "stationType": "BIKE", "status": "OPN"}, {"address": "Ruggeveldlaan", "bikes": "7", "id": "240", "lat": "51.21757", "lon": "4.48212", "name": "240- Park Groot Schijn", "slots": "28", "stationType": "BIKE", "status": "OPN"}, {"address": "Collegelaan ", "bikes": "15", "id": "241", "lat": "51.21333", "lon": "4.45333", "name": "241- Kerkendijk", "slots": "20", "stationType": "BIKE", "status": "OPN"}, {"address": "Te Boelaerlei", "bikes": "15", "id": "242", "lat": "51.21043", "lon": "4.45251", "name": "242- Te Boelaerlei", "slots": "18", "stationType": "BIKE", "status": "OPN"}, {"address": "Herentalsebaan", "bikes": "14", "id": "243", "lat": "51.20954", "lon": "4.45816", "name": "243- Mestputteke", "slots": "22", "stationType": "BIKE", "status": "OPN"}, {"address": "Herentalsebaan", "bikes": "31", "id": "244", "lat": "51.20764", "lon": "4.46532", "name": "244- Waterbaan", "slots": "5", "stationType": "BIKE", "status": "OPN"}, {"address": "Florent Pauwelslei", "bikes": "20", "id": "245", "lat": "51.20681", "lon": "4.47132", "name": "245- AZ Monica", "slots": "15", "stationType": "BIKE", "status": "OPN"}, {"address": "Arenaplein", "bikes": "22", "id": "246", "lat": "51.20695", "lon": "4.45833", "name": "246- Arena", "slots": "14", "stationType": "BIKE", "status": "OPN"}, {"address": "Luitenant Lippenslaan", "bikes": "33", "id": "247", "lat": "51.20832", "lon": "4.44595", "name": "247- ZNA Sint Erasmus", "slots": "3", "stationType": "BIKE", "status": "OPN"}, {"address": "De Schans", "bikes": "11", "id": "248", "lat": "51.20598", "lon": "4.44925", "name": "248- De Schans", "slots": "25", "stationType": "BIKE", "status": "OPN"}, {"address": "Frans de Vriendstraat", "bikes": "4", "id": "249", "lat": "51.20381", "lon": "4.44422", "name": "249- Frans De Vriend", "slots": "26", "stationType": "BIKE", "status": "OPN"}, {"address": "Diksmuidelaan", "bikes": "10", "id": "250", "lat": "51.20111", "lon": "4.43900", "name": "250- Borsbeekbrug", "slots": "25", "stationType": "BIKE", "status": "OPN"}, {"address": "Arthur Matthyslaan", "bikes": "6", "id": "251", "lat": "51.20397", "lon": "4.45209", "name": "251- Te Boelaerpark Noord", "slots": "24", "stationType": "BIKE", "status": "OPN"}, {"address": "Karel de Preterlei", "bikes": "2", "id": "252", "lat": "51.20001", "lon": "4.45028", "name": "252- Te Boelaerpark/Gitschotellei", "slots": "29", "stationType": "BIKE", "status": "OPN"}, {"address": "Vosstraat", "bikes": "16", "id": "253", "lat": "51.19806", "lon": "4.45322", "name": "253- Vosplein", "slots": "20", "stationType": "BIKE", "status": "OPN"}, {"address": "Boekenberglei", "bikes": "10", "id": "254", "lat": "51.19754", "lon": "4.45960", "name": "254- Sint-Jozef", "slots": "20", "stationType": "BIKE", "status": "OPN"}, {"address": "Van den Hautelei", "bikes": "7", "id": "255", "lat": "51.20414", "lon": "4.46764", "name": "255- Van den Haute", "slots": "29", "stationType": "BIKE", "status": "OPN"}, {"address": "Helderstraat", "bikes": "9", "id": "256", "lat": "51.19546", "lon": "4.44223", "name": "256- Zillebeek", "slots": "17", "stationType": "BIKE", "status": "OPN"}, {"address": "Hofstadestraat", "bikes": "1", "id": "257", "lat": "51.19233", "lon": "4.44875", "name": "257- Hofstade", "slots": "35", "stationType": "BIKE", "status": "OPN"}, {"address": "Lodewijk van Berckenlaan", "bikes": "2", "id": "258", "lat": "51.19750", "lon": "4.44373", "name": "258- Hof van Nauwelaerts", "slots": "27", "stationType": "BIKE", "status": "OPN"}, {"address": "Posthofbrug", "bikes": "21", "id": "259", "lat": "51.19332", "lon": "4.43703", "name": "259- Posthofbrug", "slots": "14", "stationType": "BIKE", "status": "OPN"}, {"address": "Hof ter Schriecklaan", "bikes": "3", "id": "260", "lat": "51.18964", "lon": "4.42166", "name": "260- Ter Schrieck", "slots": "22", "stationType": "BIKE", "status": "OPN"}, {"address": "Henri Prostlaan", "bikes": "15", "id": "261", "lat": "51.18863", "lon": "4.42959", "name": "261- Brilschans", "slots": "20", "stationType": "BIKE", "status": "OPN"}, {"address": "Hoogveld", "bikes": "24", "id": "262", "lat": "51.18932", "lon": "4.43561", "name": "262- Hoogveld", "slots": "11", "stationType": "BIKE", "status": "OPN"}, {"address": "Fruithoflaan - Jos Ratinckxstraat", "bikes": "4", "id": "263", "lat": "51.18453", "lon": "4.44104", "name": "263- Fruithoflaan 2", "slots": "32", "stationType": "BIKE", "status": "OPN"}, {"address": "Filip Williotstraat", "bikes": "12", "id": "264", "lat": "51.18765", "lon": "4.43510", "name": "264- Filip Williotstraat", "slots": "23", "stationType": "BIKE", "status": "OPN"}, {"address": "Pulhoflaan", "bikes": "14", "id": "265", "lat": "51.18514", "lon": "4.43204", "name": "265- Pulhof", "slots": "16", "stationType": "BIKE", "status": "OPN"}, {"address": "Fruithoflaan - Sint-Theresiastraat", "bikes": "14", "id": "266", "lat": "51.18076", "lon": "4.43471", "name": "266- Fruithoflaan 1", "slots": "19", "stationType": "BIKE", "status": "OPN"}, {"address": "Prins Leopoldstraat", "bikes": "17", "id": "267", "lat": "51.18589", "lon": "4.42338", "name": "267- Leopold", "slots": "13", "stationType": "BIKE", "status": "OPN"}, {"address": "Lindendreef", "bikes": "34", "id": "268", "lat": "51.18296", "lon": "4.41849", "name": "268- ZNA Middelheim", "slots": "2", "stationType": "BIKE", "status": "OPN"}, {"address": "Elisabethlaan", "bikes": "10", "id": "269", "lat": "51.18309", "lon": "4.42431", "name": "269- Middelheim", "slots": "18", "stationType": "BIKE", "status": "CLS"}, {"address": "Eglantierlaan", "bikes": "14", "id": "270", "lat": "51.18645", "lon": "4.40427", "name": "270- Dikke Mee", "slots": "21", "stationType": "BIKE", "status": "OPN"}, {"address": "Beukenlaan", "bikes": "17", "id": "271", "lat": "51.18069", "lon": "4.40899", "name": "271- Middelheimmuseum", "slots": "18", "stationType": "BIKE", "status": "OPN"}, {"address": "Groenenborgerlaan", "bikes": "10", "id": "272", "lat": "51.17786", "lon": "4.42165", "name": "272- Groenenborger", "slots": "18", "stationType": "BIKE", "status": "OPN"}, {"address": "Oosterveldlaan", "bikes": "20", "id": "273", "lat": "51.17582", "lon": "4.41283", "name": "273- Campus Groenenborger", "slots": "14", "stationType": "BIKE", "status": "OPN"}, {"address": "Bist", "bikes": "27", "id": "274", "lat": "51.17039", "lon": "4.39485", "name": "274- De Bist", "slots": "3", "stationType": "BIKE", "status": "OPN"}, {"address": "Groenenborgerlaan 17", "bikes": "3", "id": "275", "lat": "51.17437", "lon": "4.40334", "name": "275- Sneeuwbes", "slots": "30", "stationType": "BIKE", "status": "OPN"}, {"address": "Kruishofstraat", "bikes": "11", "id": "276", "lat": "51.18351", "lon": "4.39388", "name": "276- Corbusier", "slots": "25", "stationType": "BIKE", "status": "OPN"}, {"address": "Ahornenlaan ", "bikes": "0", "id": "277", "lat": "51.17708", "lon": "4.39973", "name": "277- Ahornen", "slots": "36", "stationType": "BIKE", "status": "OPN"}, {"address": "Oversneslaan", "bikes": "12", "id": "278", "lat": "51.16533", "lon": "4.39394", "name": "278- Oversnes", "slots": "24", "stationType": "BIKE", "status": "OPN"}, {"address": "Doornstraat", "bikes": "4", "id": "279", "lat": "51.16868", "lon": "4.39438", "name": "279- Ieperman", "slots": "30", "stationType": "BIKE", "status": "OPN"}, {"address": "Bosheidelaan", "bikes": "0", "id": "280", "lat": "51.17672", "lon": "4.38242", "name": "280- Marmotteke", "slots": "36", "stationType": "BIKE", "status": "OPN"}, {"address": "Hof van Tichelen", "bikes": "17", "id": "281", "lat": "51.18248", "lon": "4.38540", "name": "281- Hof van Tichelen", "slots": "18", "stationType": "BIKE", "status": "OPN"}, {"address": "Letterkundestraat 61", "bikes": "6", "id": "282", "lat": "51.18023", "lon": "4.38087", "name": "282- De Letter", "slots": "30", "stationType": "BIKE", "status": "OPN"}, {"address": "Hollebeekstraat", "bikes": "12", "id": "283", "lat": "51.18167", "lon": "4.37203", "name": "283- Hollebeek", "slots": "24", "stationType": "BIKE", "status": "OPN"}, {"address": "Steynsstraat", "bikes": "3", "id": "284", "lat": "51.18323", "lon": "4.36413", "name": "284- Steynsstraat", "slots": "31", "stationType": "BIKE", "status": "OPN"}, {"address": "Commandant Weynsstraat", "bikes": "16", "id": "285", "lat": "51.18379", "lon": "4.35296", "name": "285- Hoge Beuken", "slots": "11", "stationType": "BIKE", "status": "OPN"}, {"address": "Berkenrodelei", "bikes": "3", "id": "286", "lat": "51.18253", "lon": "4.34811", "name": "286- Station Hoboken/Polderstad", "slots": "32", "stationType": "BIKE", "status": "OPN"}, {"address": "Berkenrodelei", "bikes": "3", "id": "287", "lat": "51.17774", "lon": "4.35000", "name": "287- Kioskplaats/Centrum", "slots": "32", "stationType": "BIKE", "status": "OPN"}, {"address": "Draaiboomstraat", "bikes": "10", "id": "288", "lat": "51.17732", "lon": "4.35972", "name": "288- Draaiboom", "slots": "26", "stationType": "BIKE", "status": "OPN"}, {"address": "Walstraat", "bikes": "1", "id": "289", "lat": "51.17355", "lon": "4.35228", "name": "289- Broydenborgpark", "slots": "35", "stationType": "BIKE", "status": "OPN"}, {"address": "Schoonselhoflei", "bikes": "0", "id": "290", "lat": "51.17621", "lon": "4.36770", "name": "290- Co\u00f6peratielaan", "slots": "35", "stationType": "BIKE", "status": "OPN"}, {"address": "Maurits Sabbelaan", "bikes": "9", "id": "291", "lat": "51.18850", "lon": "4.37270", "name": "291- Braem blokken", "slots": "26", "stationType": "BIKE", "status": "OPN"}, {"address": "Jacob le Mairestraat", "bikes": "13", "id": "292", "lat": "51.19081", "lon": "4.38101", "name": "292- Kielpark", "slots": "23", "stationType": "BIKE", "status": "OPN"}, {"address": "Edgard Casteleinstraat", "bikes": "10", "id": "293", "lat": "51.18852", "lon": "4.39095", "name": "293- Edgard Castelein", "slots": "26", "stationType": "BIKE", "status": "OPN"}, {"address": "Eugeen Laermansstraat", "bikes": "9", "id": "294", "lat": "51.19102", "lon": "4.37669", "name": "294- Den Tir", "slots": "27", "stationType": "BIKE", "status": "OPN"}, {"address": "Emiel Vloorstraat", "bikes": "16", "id": "295", "lat": "51.19428", "lon": "4.37909", "name": "295- Sporthal Kiel", "slots": "20", "stationType": "BIKE", "status": "OPN"}, {"address": "Eric Sassenlaan", "bikes": "2", "id": "296", "lat": "51.19408", "lon": "4.39304", "name": "296- Mastvest", "slots": "28", "stationType": "BIKE", "status": "OPN"}, {"address": "Tentoonstellingslaan", "bikes": "8", "id": "297", "lat": "51.19062", "lon": "4.38893", "name": "297- Tentoonstellingswijk", "slots": "28", "stationType": "BIKE", "status": "OPN"}, {"address": "Valkstraat", "bikes": "6", "id": "298", "lat": "51.17190", "lon": "4.38237", "name": "298- Koornbloem", "slots": "20", "stationType": "BIKE", "status": "OPN"}, {"address": "C.Huysmanslaan", "bikes": "17", "id": "299", "lat": "51.19196", "lon": "4.39835", "name": "299- Antwerp expo", "slots": "17", "stationType": "BIKE", "status": "OPN"}, {"address": "Vogelzanglaan", "bikes": "18", "id": "300", "lat": "51.18875", "lon": "4.39770", "name": "300- Wilrijksepleinen", "slots": "18", "stationType": "BIKE", "status": "OPN"}, {"address": "Luchthaven ", "bikes": "14", "id": "301", "lat": "51.18884", "lon": "4.45039", "name": "301- Luchthaven ", "slots": "15", "stationType": "BIKE", "status": "OPN"}, {"address": "Rozenkrans", "bikes": "4", "id": "302", "lat": "51.17904", "lon": "4.39048", "name": "302- Rozenkrans", "slots": "25", "stationType": "BIKE", "status": "OPN"}, {"address": "Kambalastraat", "bikes": "32", "id": "303", "lat": "51.23793", "lon": "4.40959", "name": "303-Kambala", "slots": "3", "stationType": "BIKE", "status": "OPN"}, {"address": "Campiniastraat", "bikes": "4", "id": "304", "lat": "51.24007", "lon": "4.43380", "name": "304 - Campinia", "slots": "32", "stationType": "BIKE", "status": "OPN"}, {"address": "Ter Nieuwerbrugge", "bikes": "3", "id": "305", "lat": "51.19131", "lon": "4.44350", "name": "305 - Ter Nieuwerbrugge", "slots": "33", "stationType": "BIKE", "status": "OPN"}, {"address": "Baron Sadoinestraat", "bikes": "8", "id": "307", "lat": "51.17206", "lon": "4.33825", "name": "307 - Baron Sadoin", "slots": "28", "stationType": "BIKE", "status": "OPN"}, {"address": "Majoor Maelfaitplein", "bikes": "7", "id": "308", "lat": "51.17107", "lon": "4.36717", "name": "308 - KDG Campus Hoboken", "slots": "27", "stationType": "BIKE", "status": "OPN"}, {"address": "Paul Henri Spaaklaan", "bikes": "8", "id": "309", "lat": "51.17089", "lon": "4.34960", "name": "309 - De Torekens", "slots": "27", "stationType": "BIKE", "status": "OPN"}, {"address": "Krijgsbaan", "bikes": "11", "id": "310", "lat": "51.16719", "lon": "4.35356", "name": "310 - Sporthal Sorghvliedt", "slots": "25", "stationType": "BIKE", "status": "OPN"}, {"address": "Cockerillplaats", "bikes": "5", "id": "311", "lat": "51.17455", "lon": "4.34423", "name": "311 - Cockerillhof", "slots": "30", "stationType": "BIKE", "status": "OPN"}, {"address": "Graspolderlaan", "bikes": "7", "id": "312", "lat": "51.18474", "lon": "4.34251", "name": "312 - Graspolder", "slots": "29", "stationType": "BIKE", "status": "OPN"}, {"address": "Constant Jorislaan", "bikes": "3", "id": "313", "lat": "51.20051", "lon": "4.47024", "name": "313 - Eksterlaar", "slots": "32", "stationType": "BIKE", "status": "OPN"}, {"address": "Sint-Bernardsesteenweg", "bikes": "2", "id": "314", "lat": "51.16910", "lon": "4.36328", "name": "314 - Schoonselhof", "slots": "34", "stationType": "BIKE", "status": "OPN"}, {"address": "Dokter Emiel Van Dammestraat", "bikes": "11", "id": "316", "lat": "51.18174", "lon": "4.35805", "name": "316 - D.E. Van Damme", "slots": "25", "stationType": "BIKE", "status": "OPN"}, {"address": "Sluitberg", "bikes": "10", "id": "317", "lat": "51.25207", "lon": "4.43311", "name": "317 - Distelhoek", "slots": "25", "stationType": "BIKE", "status": "OPN"}, {"address": "Schaliemolenstraat", "bikes": "4", "id": "319", "lat": "51.17284", "lon": "4.40517", "name": "319 - Schaliemolen", "slots": "26", "stationType": "BIKE", "status": "OPN"}, {"address": "Den Brem", "bikes": "12", "id": "320", "lat": "51.17406", "lon": "4.37563", "name": "320 - Den Brem", "slots": "24", "stationType": "BIKE", "status": "OPN"}, {"address": "Monnikenplein", "bikes": "5", "id": "321", "lat": "51.17508", "lon": "4.43003", "name": "321 - Monnikenplein", "slots": "31", "stationType": "BIKE", "status": "OPN"}, {"address": "Malisgoed", "bikes": "13", "id": "322", "lat": "51.16695", "lon": "4.38213", "name": "322 - Malisgoed", "slots": "11", "stationType": "BIKE", "status": "OPN"}, {"address": "Oosterveldlaan", "bikes": "14", "id": "323", "lat": "51.17535", "lon": "4.41892", "name": "323 - Sint-Augustinus", "slots": "22", "stationType": "BIKE", "status": "OPN"}, {"address": "Dordrechtlaan", "bikes": "13", "id": "324", "lat": "51.20430", "lon": "4.46131", "name": "324 - Dordrechlaan", "slots": "11", "stationType": "BIKE", "status": "OPN"}, {"address": "Paul Vekemanslaan", "bikes": "10", "id": "325", "lat": "51.17488", "lon": "4.35993", "name": "325 - Paul Vekemans", "slots": "20", "stationType": "BIKE", "status": "OPN"}, {"address": "Ridderveld", "bikes": "0", "id": "327", "lat": "51.17721", "lon": "4.37488", "name": "327 - Ridderveld", "slots": "30", "stationType": "BIKE", "status": "OPN"}, {"address": "Schotensesteenweg", "bikes": "3", "id": "328", "lat": "51.21915", "lon": "4.47506", "name": "328 - Oude Terminus", "slots": "32", "stationType": "BIKE", "status": "OPN"}, {"address": "Prosper de Wittestraat", "bikes": "3", "id": "329", "lat": "51.22610", "lon": "4.47064", "name": "329 - Prosper de Wit", "slots": "24", "stationType": "BIKE", "status": "OPN"}, {"address": "Meerlenhoflaan", "bikes": "10", "id": "330", "lat": "51.17234", "lon": "4.35626", "name": "330 - Meerlenhof", "slots": "26", "stationType": "BIKE", "status": "OPN"}, {"address": "Zaatlaan", "bikes": "17", "id": "331", "lat": "51.17540", "lon": "4.33873", "name": "331 - Zaatlaan", "slots": "19", "stationType": "BIKE", "status": "OPN"}, {"address": "Michel Geysemansstraat", "bikes": "9", "id": "332", "lat": "51.16751", "lon": "4.38542", "name": "332 - Valkstraat", "slots": "27", "stationType": "BIKE", "status": "OPN"}, {"address": "Frans Adriaenssensst", "bikes": "17", "id": "333", "lat": "51.25457", "lon": "4.44173", "name": "333 - Frans Adriaenssen / Joma", "slots": "13", "stationType": "BIKE", "status": "OPN"}, {"address": "August van de Wielelei", "bikes": "16", "id": "334", "lat": "51.21979", "lon": "4.48317", "name": "334 - Den Haas", "slots": "20", "stationType": "BIKE", "status": "OPN"}, {"address": "Speelpleinstraat / Terlindenhofstraat", "bikes": "15", "id": "335", "lat": "51.24822", "lon": "4.44424", "name": "335- Speelplein", "slots": "21", "stationType": "BIKE", "status": "OPN"}, {"address": "Sneeuwbeslaan/Laarstraat", "bikes": "10", "id": "336", "lat": "51.17571", "lon": "4.39622", "name": "336 -Sneeuwbeslaan", "slots": "26", "stationType": "BIKE", "status": "OPN"}, {"address": "Verenigde Natieslaan", "bikes": "19", "id": "337", "lat": "51.16379", "lon": "4.35336", "name": "337 - Verenigde Naties", "slots": "5", "stationType": "BIKE", "status": "OPN"}, {"address": "Dokter Donnyplein", "bikes": "7", "id": "340", "lat": "51.16813", "lon": "4.40497", "name": "340 - Dokter Donny", "slots": "28", "stationType": "BIKE", "status": "OPN"}, {"address": "Jos Smolderenstraat", "bikes": "5", "id": "342", "lat": "51.20626", "lon": "4.38345", "name": "342 - Nieuw Zuid", "slots": "29", "stationType": "BIKE", "status": "OPN"}]